$GPRMC,211643.00,A,3003.90204,N,03116.62968,E,0.078,,060621,,,A*
$GPRMC,211645.00,A,3003.90197,N,03116.62968,E,0.191,,060621,,,A*
$GPRMC,211647.00,A,3003.90205,N,03116.62973,E,0.092,,060621,,,A*
$GPRMC,211649.00,A,3003.90209,N,03116.62983,E,0.062,,060621,,,A*
$GPRMC,211651.00,A,3003.90215,N,03116.62989,E,0.184,,060621,,,A*
$GPRMC,211653.00,A,3003.90218,N,03116.62993,E,0.060,,060621,,,A*
$GPRMC,211655.00,A,3003.90221,N,03116.62996,E,0.040,,060621,,,A*
$GPRMC,211657.00,A,3003.90233,N,03116.62999,E,0.024,,060621,,,A*
$GPRMC,211659.00,A,3003.90247,N,03116.62996,E,0.039,,060621,,,A*
$GPRMC,211701.00,A,3003.90248,N,03116.62983,E,0.001,,060621,,,A*
$GPRMC,211703.00,A,3003.90245,N,03116.62973,E,0.017,,060621,,,A*
$GPRMC,211705.00,A,3003.90240,N,03116.62968,E,0.027,,060621,,,A*
$GPRMC,211707.00,A,3003.90236,N,03116.62966,E,0.036,,060621,,,A*
$GPRMC,211709.00,A,3003.90234,N,03116.62964,E,0.031,,060621,,,A*
$GPRMC,211711.00,A,3003.90240,N,03116.62966,E,0.129,,060621,,,A*
$GPRMC,211713.00,A,3003.90244,N,03116.62960,E,0.034,,060621,,,A*
$GPRMC,211715.00,A,3003.90247,N,03116.62945,E,0.035,,060621,,,A*
$GPRMC,211717.00,A,3003.90248,N,03116.62939,E,0.044,,060621,,,A*
$GPRMC,211719.00,A,3003.90258,N,03116.62937,E,0.401,,060621,,,A*
$GPRMC,211721.00,A,3003.90311,N,03116.62914,E,1.352,338.40,060621,,,A*
$GPRMC,211723.00,A,3003.90378,N,03116.62863,E,1.470,333.03,060621,,,A*
$GPRMC,211725.00,A,3003.90449,N,03116.62822,E,1.515,336.69,060621,,,A*
$GPRMC,211727.00,A,3003.90521,N,03116.62789,E,1.553,336.90,060621,,,A*
$GPRMC,211729.00,A,3003.90595,N,03116.62766,E,1.441,346.85,060621,,,A*
$GPRMC,211731.00,A,3003.90674,N,03116.62765,E,1.644,354.70,060621,,,A*
$GPRMC,211733.00,A,3003.90764,N,03116.62767,E,1.706,1.47,060621,,,A*
$GPRMC,211735.00,A,3003.90863,N,03116.62759,E,1.902,0.37,060621,,,A*
$GPRMC,211737.00,A,3003.90961,N,03116.62752,E,1.828,358.76,060621,,,A*
$GPRMC,211739.00,A,3003.91051,N,03116.62730,E,1.654,351.23,060621,,,A*
$GPRMC,211741.00,A,3003.91116,N,03116.62709,E,1.638,335.49,060621,,,A*
$GPRMC,211743.00,A,3003.91220,N,03116.62664,E,2.180,338.68,060621,,,A*
$GPRMC,211745.00,A,3003.91309,N,03116.62623,E,1.757,,060621,,,A*
$GPRMC,211747.00,A,3003.91353,N,03116.62561,E,1.295,331.15,060621,,,A*
$GPRMC,211749.00,A,3003.91435,N,03116.62539,E,0.952,347.02,060621,,,A*
$GPRMC,211751.00,A,3003.91519,N,03116.62504,E,1.177,335.85,060621,,,A*
$GPRMC,211753.00,A,3003.91593,N,03116.62474,E,1.250,345.73,060621,,,A*
$GPRMC,211755.00,A,3003.91677,N,03116.62433,E,1.385,340.33,060621,,,A*
$GPRMC,211757.00,A,3003.91751,N,03116.62407,E,1.394,349.91,060621,,,A*
$GPRMC,211759.00,A,3003.91844,N,03116.62385,E,1.715,346.92,060621,,,A*
$GPRMC,211801.00,A,3003.91926,N,03116.62360,E,1.397,344.20,060621,,,A*
$GPRMC,211803.00,A,3003.92007,N,03116.62324,E,1.385,342.74,060621,,,A*
$GPRMC,211805.00,A,3003.92077,N,03116.62297,E,1.450,341.41,060621,,,A*
$GPRMC,211807.00,A,3003.92165,N,03116.62291,E,1.490,352.73,060621,,,A*
$GPRMC,211809.00,A,3003.92254,N,03116.62275,E,1.592,348.68,060621,,,A*
$GPRMC,211811.00,A,3003.92355,N,03116.62269,E,1.659,359.69,060621,,,A*
$GPRMC,211813.00,A,3003.92428,N,03116.62280,E,1.240,9.52,060621,,,A*
$GPRMC,211815.00,A,3003.92496,N,03116.62305,E,1.479,22.39,060621,,,A*
$GPRMC,211817.00,A,3003.92551,N,03116.62352,E,1.488,45.65,060621,,,A*
$GPRMC,211819.00,A,3003.92597,N,03116.62412,E,1.233,51.82,060621,,,A*
$GPRMC,211821.00,A,3003.92639,N,03116.62494,E,1.157,55.18,060621,,,A*
$GPRMC,211823.00,A,3003.92673,N,03116.62569,E,1.277,60.81,060621,,,A*
$GPRMC,211825.00,A,3003.92720,N,03116.62633,E,1.616,54.72,060621,,,A*
$GPRMC,211827.00,A,3003.92761,N,03116.62704,E,1.364,68.31,060621,,,A*
$GPRMC,211829.00,A,3003.92789,N,03116.62775,E,1.329,64.31,060621,,,A*
$GPRMC,211831.00,A,3003.92824,N,03116.62852,E,1.507,63.85,060621,,,A*
$GPRMC,211833.00,A,3003.92852,N,03116.62924,E,1.243,64.18,060621,,,A*
$GPRMC,211835.00,A,3003.92881,N,03116.63003,E,1.268,,060621,,,A*
$GPRMC,211837.00,A,3003.92906,N,03116.63079,E,1.276,,060621,,,A*
$GPRMC,211839.00,A,3003.92954,N,03116.63172,E,1.094,67.15,060621,,,A*
$GPRMC,211841.00,A,3003.92994,N,03116.63246,E,1.391,68.20,060621,,,A*
$GPRMC,211843.00,A,3003.93028,N,03116.63311,E,1.595,62.79,060621,,,A*
$GPRMC,211845.00,A,3003.93067,N,03116.63395,E,1.629,,060621,,,A*
$GPRMC,211847.00,A,3003.93101,N,03116.63479,E,1.427,65.36,060621,,,A*
$GPRMC,211849.00,A,3003.93139,N,03116.63560,E,1.500,70.22,060621,,,A*
$GPRMC,211851.00,A,3003.93145,N,03116.63666,E,1.518,76.73,060621,,,A*
$GPRMC,211853.00,A,3003.93168,N,03116.63746,E,1.249,75.65,060621,,,A*
$GPRMC,211855.00,A,3003.93205,N,03116.63826,E,1.565,68.98,060621,,,A*
$GPRMC,211857.00,A,3003.93236,N,03116.63914,E,1.738,72.21,060621,,,A*
$GPRMC,211859.00,A,3003.93272,N,03116.64010,E,1.532,68.21,060621,,,A*
$GPRMC,211901.00,A,3003.93318,N,03116.64091,E,1.528,62.77,060621,,,A*
$GPRMC,211903.00,A,3003.93351,N,03116.64158,E,1.075,,060621,,,A*
$GPRMC,211905.00,A,3003.93387,N,03116.64226,E,1.495,68.48,060621,,,A*
$GPRMC,211907.00,A,3003.93403,N,03116.64273,E,0.770,,060621,,,A*
$GPRMC,211909.00,A,3003.93431,N,03116.64350,E,1.334,,060621,,,A*
$GPRMC,211911.00,A,3003.93437,N,03116.64447,E,1.358,66.15,060621,,,A*
$GPRMC,211913.00,A,3003.93443,N,03116.64532,E,1.427,68.46,060621,,,A*
$GPRMC,211915.00,A,3003.93515,N,03116.64655,E,1.265,68.03,060621,,,A*
$GPRMC,211917.00,A,3003.93542,N,03116.64724,E,1.437,63.62,060621,,,A*
$GPRMC,211919.00,A,3003.93572,N,03116.64788,E,1.007,66.71,060621,,,A*
$GPRMC,211921.00,A,3003.93603,N,03116.64845,E,1.087,,060621,,,A*
$GPRMC,211923.00,A,3003.93625,N,03116.64876,E,0.524,,060621,,,A*
$GPRMC,211925.00,A,3003.93650,N,03116.64878,E,0.328,,060621,,,A*
$GPRMC,211927.00,A,3003.93658,N,03116.64918,E,0.593,,060621,,,A*
$GPRMC,211929.00,A,3003.93671,N,03116.64972,E,1.480,63.09,060621,,,A*
$GPRMC,211931.00,A,3003.93689,N,03116.65048,E,1.456,68.02,060621,,,A*
$GPRMC,211933.00,A,3003.93705,N,03116.65171,E,1.844,73.67,060621,,,A*
$GPRMC,211935.00,A,3003.93734,N,03116.65196,E,1.540,75.62,060621,,,A*
$GPRMC,211937.00,A,3003.93768,N,03116.65315,E,1.679,71.82,060621,,,A*
$GPRMC,211939.00,A,3003.93804,N,03116.65382,E,1.436,68.66,060621,,,A*
$GPRMC,211941.00,A,3003.93828,N,03116.65522,E,1.556,73.79,060621,,,A*
$GPRMC,211943.00,A,3003.93844,N,03116.65637,E,1.711,76.06,060621,,,A*
$GPRMC,211945.00,A,3003.93852,N,03116.65768,E,1.275,76.61,060621,,,A*